City_ID,City,Country,Max Temp,Current Description,Lat,Lng,Hotel Name
0,Sakakah,SA,60.8,clear sky,29.9697,40.2064,Fakhamat Al Orjoana Apartment
1,Rikitea,PF,78.6,clear sky,-23.1203,-134.9692,Pension Maro'i
6,Airai,TL,71.06,broken clouds,-8.9266,125.4092,Juvinal Martin
7,Talcahuano,CL,59.0,clear sky,-36.7167,-73.1167,Hotel Terramar
8,Saint-Philippe,RE,73.4,light rain,-21.3585,55.7679,"Chambres d'hôte ""La Trinité"""
9,Pisco,PE,66.2,clear sky,-13.7,-76.2167,Hotel San Isidro Oficial
10,Lagoa,PT,60.69,scattered clouds,39.05,-27.9833,Casa Das Faias
12,Hermanus,ZA,63.0,broken clouds,-34.4187,19.2345,Misty Waves Boutique Hotel
14,Cidreira,BR,71.37,overcast clouds,-30.1811,-50.2056,Hotel Castelo
15,Cittanova,IT,57.0,broken clouds,38.3552,16.0798,Casa di Meco
16,Kapaa,US,78.8,scattered clouds,22.0752,-159.319,Sheraton Kauai Resort at Coconut Beach
17,Butaritari,KI,82.13,light rain,3.0707,172.7902,Isles Sunset Lodge
18,Mizdah,LY,54.81,overcast clouds,31.4451,12.9801,محمدالمبروك الاريقط
20,Castro,BR,53.73,overcast clouds,-24.7911,-50.0119,CHACARA BAILLY
21,Liku,ID,86.43,scattered clouds,-0.7275,119.8922,Kost Raisa & homestay
22,Busselton,AU,66.76,scattered clouds,-33.65,115.3333,Observatory Guest House
23,Fortuna,US,57.99,clear sky,40.5982,-124.1573,Super 8 by Wyndham Fortuna
25,Lompoc,US,57.2,broken clouds,34.6391,-120.4579,Holiday Inn Express Lompoc
26,Kruisfontein,ZA,57.99,clear sky,-34.0033,24.7314,Oyster Bay House Rental
27,Mataura,NZ,61.0,scattered clouds,-46.1927,168.8643,Ellie's Villa
29,New Norfolk,AU,53.01,few clouds,-42.7826,147.0587,The Shingles Riverside Cottages
30,Vila Velha,BR,73.4,clear sky,-20.3297,-40.2925,Quality Suites Vila Velha
31,Kaeo,NZ,71.01,clear sky,-35.1,173.7833,Bushido Lodge
32,Vaini,TO,80.6,few clouds,-21.2,-175.2,Keleti Beach Resort
35,Quatre Cocos,MU,77.0,light rain,-20.2078,57.7625,Emeraude Beach Attitude Hotel
38,Sola,VU,89.6,scattered clouds,-13.8833,167.55,Leumerus Bungalows
40,Neiafu,TO,80.6,scattered clouds,-18.65,-173.9833,Mystic Sands
41,Iquitos,PE,77.0,scattered clouds,-3.7481,-73.2472,Casa Morey Hotel & Restaurant
42,Chuy,UY,62.22,broken clouds,-33.6971,-53.4616,Nuevo Hotel Plaza
44,Labuhan,ID,82.47,broken clouds,-6.8844,112.2051,PT PPI Lamongan Tambak C
45,Kudahuvadhoo,MV,82.69,overcast clouds,2.6708,72.8944,Niyama Private Islands Maldives
48,Banda Aceh,ID,82.78,broken clouds,5.5577,95.3222,Sulthan Hotel International
50,Road Town,VG,78.8,scattered clouds,18.4167,-64.6167,"ZINGARA 76ft Catamaran, full crew-all included"
52,Puerto Princesa,PH,80.6,light rain,9.7392,118.7353,Deep Forest Garden Inn
53,Rantepao,ID,79.54,overcast clouds,-2.9701,119.8978,Hotel Luta Resort
54,Codrington,AU,59.58,light rain,-38.2667,141.9667,Codrington Gardens Bed And Breakfast
58,Nabire,ID,86.83,overcast clouds,-3.3667,135.4833,Hotel Nusantara Nabire
59,Bud,US,52.0,clear sky,39.446999999999996,-86.1758,Ted McQuinn Trust
60,Toba Tek Singh,PK,78.82,overcast clouds,30.9743,72.4827,Haji Muhammad Ashraf(x Consular)
61,Fare,PF,82.13,overcast clouds,-16.7,-151.0167,Maitai Lapita Village Huahine
62,Port-Gentil,GA,81.18,overcast clouds,-0.7193,8.7815,Fengshui Residence
65,Puerto Escondido,MX,80.6,broken clouds,15.85,-97.0667,Aldea del Bazar Hotel and Spa
66,Ternate,ID,82.56,scattered clouds,0.8,127.4,Grand Dafam Bela Ternate
67,Gigmoto,PH,82.02,overcast clouds,13.7796,124.39,Cj's Travellers Inn
68,Saint-Joseph,RE,73.4,light rain,-21.3667,55.6167,"""Plantation Bed and Breakfast"
69,Bambous Virieux,MU,77.0,light rain,-20.3428,57.7575,Casa Tia Villa
70,Korla,CN,59.77,clear sky,41.7597,86.1469,Gulisitan Hotel
73,Port Elizabeth,ZA,59.0,few clouds,-33.918,25.5701,39 On Nile Guest House
74,Naze,JP,71.6,light rain,28.3667,129.4833,奄美ポートタワーホテル
75,Ugoofaaru,MV,82.96,broken clouds,5.6667,73.0,Ungoofaaru Inn
76,Katsuura,JP,55.0,scattered clouds,35.1333,140.3,Katsuura Hotel Mikazuki
77,East London,ZA,67.42,clear sky,-33.0153,27.9116,Tu Casa
79,Kieta,PG,82.44,light rain,-6.2167,155.6333,Uruna Bay Retreat
80,Bluff,NZ,61.0,broken clouds,-46.6,168.3333,Bluff Homestead - Guesthouse & Campervan Park
81,Saint Augustine,US,73.4,broken clouds,29.8947,-81.3145,St. George Inn
82,Lorengau,PG,83.7,broken clouds,-2.0226,147.2712,Lorengau Harbourside Hotel
83,Omboue,GA,76.59,overcast clouds,-1.5746,9.2618,Hotel Olako
84,Avarua,CK,84.2,few clouds,-21.2078,-159.775,Paradise Inn
86,Makat,KZ,56.75,few clouds,47.6469,53.3463,Umit
88,Kahului,US,80.6,scattered clouds,20.8947,-156.47,Maui Seaside Hotel
90,Ketchikan,US,51.8,clear sky,55.3422,-131.6461,Snows Cove Lodge
93,Hilo,US,80.6,few clouds,19.7297,-155.09,Hilo Hawaiian Hotel
94,Coquimbo,CL,59.0,overcast clouds,-29.9533,-71.3436,Punto de encuentro
97,Lambarene,GA,74.21,overcast clouds,-0.7001,10.2406,Le Refuge
98,Mao,ES,51.8,clear sky,39.8885,4.2658,ARTIEM Capri
101,Nampa,US,57.2,clear sky,43.5407,-116.5635,Nampa Downtown
102,Peniche,PT,61.0,light rain,39.3558,-9.3811,Hotel Star inn Peniche
103,Georgetown,MY,82.4,few clouds,5.4112,100.3354,Cititel Penang
105,Murshidabad,IN,89.06,broken clouds,24.1833,88.2667,Hotel Raymond
109,Shangqiu,CN,66.0,clear sky,34.45,115.65,Thank Inn Chain Hotel henan shangqiu railway station ticket shop
110,Dossor,KZ,57.16,few clouds,47.5272,52.9811,"Gostinitsa Orpk ""Nauryz"""
114,Hasaki,JP,55.0,few clouds,35.7333,140.8333,Hotel Sunrise Choshi
116,Rondonopolis,BR,74.37,scattered clouds,-16.4708,-54.6356,Serras Hotel
118,Soyo,AO,78.96,overcast clouds,-6.1349,12.3689,Hotel Mpampa
119,Baoying,CN,57.49,overcast clouds,33.2292,119.3092,GreenTree Alliance Yangzhou Baoying Town Huaijiang Street East Taishan Road Hotel
120,Chifeng,CN,63.88,broken clouds,42.2683,118.9636,Junyu Tiancheng Hotel
121,Formosa,AR,75.2,clear sky,-26.1775,-58.1781,Hotel Portal del Sol
122,Cape Town,ZA,62.01,clear sky,-33.9258,18.4232,Southern Sun Waterfront Cape Town
124,Grand-Lahou,CI,80.85,overcast clouds,5.1367,-5.0242,Hotel Beatitude de Grand Lahou
126,Cap Malheureux,MU,75.99,light rain,-19.9842,57.6142,Pereybere Hotel & Spa
128,Padang,ID,80.56,overcast clouds,-0.9492,100.3543,Mercure Padang
129,Constantine,DZ,51.8,broken clouds,36.365,6.6147,Grand Hotel Cirta
130,Clarence Town,AU,75.99,clear sky,-32.5833,151.7833,River Downs Cottage
131,Tura,IN,82.87,overcast clouds,25.5198,90.2201,Hotel RIKMAN Continental
132,Souillac,MU,77.0,light rain,-20.5167,57.5167,Shanti Maurice Resort & Spa
133,Arraial Do Cabo,BR,74.19,broken clouds,-22.9661,-42.0278,Pousada Porto Praia
135,Puerto Ayora,EC,76.24,few clouds,-0.7393,-90.3518,Finch Bay Galapagos Hotel
136,Limon,CR,80.6,broken clouds,10.0,-83.0333,Hotel Playa Bonita
142,Bredasdorp,ZA,50.0,overcast clouds,-34.5322,20.0403,Bredasdorp Country Manor
143,Lebu,CL,54.86,overcast clouds,-37.6167,-73.65,Hostal Las Lilas
145,Mar Del Plata,AR,64.99,clear sky,-38.0023,-57.5575,Gran Hotel Mar del Plata
146,Mayo,US,57.2,moderate rain,38.8876,-76.5119,Resorts Resource Group International
147,Pacifica,US,59.0,haze,37.6138,-122.4869,"Pacifica Lighthouse, Trademark Collection by Wyndham"
148,Hobart,AU,57.2,few clouds,-42.8794,147.3294,Mantra on Collins Hobart
152,Atuona,PF,80.85,few clouds,-9.8,-139.0333,Villa Enata
153,Geraldton,AU,68.0,clear sky,-28.7667,114.6,Broadwater Mariner Resort
154,Bonthe,SL,78.75,overcast clouds,7.5264,-12.505,Bonthe Holiday Village
156,Praya,CV,73.4,clear sky,14.9215,-23.5087,LT Aparthotel
157,Yining,CN,61.45,light rain,29.0361,114.5636,Xiushui Hotel
158,Hartselle,US,59.0,light rain,34.4434,-86.9353,Country Cottage-Hartselle
159,Port Alfred,ZA,67.15,broken clouds,-33.5906,26.891,The Halyards Hotel
160,Dicabisagan,PH,84.51,few clouds,17.0818,122.4157,Nancy Montanes Bernardo
161,Cedar City,US,55.4,overcast clouds,37.6775,-113.0619,Hampton Inn Cedar City
163,Maua,BR,63.0,broken clouds,-23.6678,-46.4614,Hotel Capriccio Mauá
165,Alofi,NU,82.4,scattered clouds,-19.0595,-169.9187,Taloa Heights
166,Guanica,PR,78.01,overcast clouds,17.9716,-66.908,Copamarina Beach Resort & Spa
168,Shambu,ET,56.03,overcast clouds,9.5667,37.1,Wabe Hotel
170,Myitkyina,MM,85.64,scattered clouds,25.3833,97.4,Shwe Phyu Hotel
171,Bowen,AU,80.6,scattered clouds,-20.0167,148.2333,Castle Motor Lodge Motel
172,Puerto Leguizamo,CO,73.0,overcast clouds,-0.1934,-74.7819,la casona de juancho
173,Mareeba,AU,84.99,broken clouds,-17.0,145.4333,Trinity Plains Tourist Park
175,Alyangula,AU,86.0,overcast clouds,-13.8483,136.4192,Groote Eylandt Lodge
178,Saldanha,ZA,71.6,broken clouds,-33.0117,17.9442,Blue Bay Lodge
180,Maraba,BR,73.02,overcast clouds,-5.3686,-49.1178,Hotel Del Principe
181,Kaitangata,NZ,64.0,clear sky,-46.2817,169.8464,Kaitangata Motor Camp
184,Shingu,JP,59.0,scattered clouds,33.7333,135.9833,Shingu UI Hotel
186,Marawi,PH,82.99,overcast clouds,7.9986,124.2928,Derogongan Residence
188,Caceres,ES,55.74,overcast clouds,39.522,-6.3748,Ahc Hoteles
189,Cache Creek,CA,71.6,clear sky,50.8101,-121.3246,Canadas Best Value Inn & Suites Cache Creek
190,Gizo,SB,83.86,light rain,-8.103,156.8419,Imagination Island
192,Malacatepec,MX,66.2,broken clouds,18.9333,-98.3,Parque Malta
193,Te Anau,NZ,53.78,overcast clouds,-45.4167,167.7167,Kingsgate Hotel Te Anau
194,Acapulco,MX,80.6,broken clouds,16.8634,-99.8901,HS Hotsson Smart Acapulco
198,Mollendo,PE,66.47,broken clouds,-17.0231,-72.0147,Hostal La Casa de Melgar
199,Burnie,AU,53.1,overcast clouds,-41.0667,145.9167,Beachfront Voyager Motor Inn
200,Saryozek,KZ,55.85,clear sky,44.3583,77.9753,Gostinitsa
201,Cayenne,GF,82.0,scattered clouds,4.9333,-52.3333,Hôtel Le Dronmi
202,Aland,IN,76.28,clear sky,17.5667,76.5667,ui
205,Porto Nacional,BR,75.2,heavy intensity rain,-10.7081,-48.4172,Vila Real Hotel
207,Punta Alta,AR,65.86,clear sky,-38.8759,-62.0736,Center Hotel Punta Alta
208,Grajau,BR,75.09,overcast clouds,-5.8194,-46.1386,Hotel Confiança
209,Bengkulu,ID,81.61,overcast clouds,-3.8004,102.2655,Grage Hotel Bengkulu
211,Tabou,CI,80.35,overcast clouds,4.423,-7.3528,hotêl doufoulougou
213,Constitucion,CL,55.71,clear sky,-35.3333,-72.4167,Hotel Boutique Las Azucenas
215,Rawson,AR,66.2,overcast clouds,-43.3002,-65.1023,Hosteria Sampedro
217,Dingle,PH,87.1,overcast clouds,10.9995,122.6711,SEGAYA PROPERTY
218,Kikwit,CD,68.63,overcast clouds,-5.041,18.8162,Guest L'Amour
219,Russell,US,69.8,overcast clouds,32.3502,-85.1999,Macs
220,Cairns,AU,84.99,broken clouds,-16.9167,145.7667,Mantra Trilogy Cairns
221,Nicoya,CR,84.2,scattered clouds,10.1483,-85.45200000000001,Guayacan Real
222,Fukue,JP,59.0,broken clouds,32.6881,128.8419,Goto Guesthouse Utojuku & SA Car Rental
223,Calama,CL,60.8,clear sky,-22.4667,-68.9333,Diego De Almagro Calama
225,Roma,US,55.4,few clouds,43.2128,-75.4557,Wingate By Wyndham Rome
226,Taloqan,AF,62.4,moderate rain,36.7361,69.5345,Saraisang street
227,Nara,JP,57.99,clear sky,34.6851,135.8049,Guesthouse Nara Komachi
228,Flinders,AU,75.0,clear sky,-34.5833,150.8552,Shellharbour Resort & Conference Centre
230,Lazaro Cardenas,MX,75.52,clear sky,17.9583,-102.2,Hotel Quinta Antigua
231,Sechura,PE,73.09,broken clouds,-5.5569,-80.8222,Hospedaje Costa Bella
232,Esperance,AU,60.8,scattered clouds,-33.8667,121.9,Hospitality Esperance
233,Estelle,US,68.0,overcast clouds,29.8458,-90.1067,Ohio
234,Half Moon Bay,US,64.4,haze,37.4636,-122.4286,"The Ritz-Carlton, Half Moon Bay"
236,Mount Gambier,AU,59.0,broken clouds,-37.8333,140.7667,Commodore on the Park
237,Cukai,MY,78.8,few clouds,4.25,103.4167,OYO 90038 Dalyla Inn Chalet
238,Aljezur,PT,59.83,broken clouds,37.3191,-8.8033,Amazigh Hostel
240,Mahebourg,MU,77.0,light rain,-20.4081,57.7,Shandrani Beachcomber Resort & Spa
241,Grand Gaube,MU,75.99,light rain,-20.0064,57.6608,Veranda Paul et Virginie Hotel & Spa
242,Hithadhoo,MV,82.06,scattered clouds,-0.6,73.0833,Scoop Guest House
243,Ambulu,ID,83.21,few clouds,-8.345,113.6058,Hotel Ambulu Jember
244,Melilla,ES,57.2,overcast clouds,35.2937,-2.9383,Hotel Nacional
247,Malakal,SS,81.07,clear sky,9.5334,31.6605,Nile Palace Hotel
251,Meulaboh,ID,81.18,broken clouds,4.1363,96.1285,Kost Pria
252,Rabaul,PG,82.67,broken clouds,-4.1967,152.1721,Rabaul Hotel
253,Kavaratti,IN,83.77,clear sky,10.5669,72.642,Hotels in Lakshadweep Islands
254,Poum,NC,78.1,overcast clouds,-20.2333,164.0167,Gîte kajeon
256,Sao Filipe,CV,76.33,scattered clouds,14.8961,-24.4956,Tortuga B&B
257,Mahibadhoo,MV,83.03,broken clouds,3.7833,72.9667,Omadhoo Inn
259,Namatanai,PG,85.35,scattered clouds,-3.6667,152.4333,Namatanai Hotel
260,Port Macquarie,AU,82.0,few clouds,-31.4333,152.9167,Rydges Port Macquarie
261,Lydenburg,ZA,51.01,scattered clouds,-25.0978,30.4597,The Palms Boutique Hotel
262,Broome,US,53.6,overcast clouds,42.2506,-75.833,Chenango Valley State Park
264,Bandarbeyla,SO,79.75,overcast clouds,9.4942,50.8122,JABIR HOTEL
265,Carnarvon,AU,80.31,clear sky,-24.8667,113.6333,Hospitality Carnarvon
266,Kailua,US,82.4,few clouds,21.4022,-157.7394,Sheffield House Bed & Breakfast
267,General Roca,AR,55.4,clear sky,-39.0333,-67.5833,Hotel y Casino del Río General Roca
268,Ponta Delgada,PT,57.2,few clouds,37.7333,-25.6667,Vila Nova Hotel
269,Mackay,AU,82.0,scattered clouds,-21.15,149.2,International Lodge Motel
270,Cape Canaveral,US,73.4,clear sky,28.4058,-80.6048,Residence Inn by Marriott Cape Canaveral Cocoa Beach
273,Norman Wells,CA,50.0,broken clouds,65.282,-126.8329,Heritage Hotel
276,Vaijapur,IN,66.2,haze,19.9167,74.7333,HOTEL MATOSHRI
277,Ichinohe,JP,50.04,overcast clouds,40.2069,141.3017,鳥越旅館
278,Kurayoshi,JP,53.6,broken clouds,35.4333,133.8167,Hotel Ark 21
279,Dunedin,NZ,60.01,scattered clouds,-45.8742,170.5036,Scenic Hotel Southern Cross
283,Abha,SA,64.4,clear sky,18.2164,42.5053,Abha Hotel
288,Pangai,TO,82.4,scattered clouds,-19.8,-174.35,Ha'apai Beach Resort
291,Kimbe,PG,88.79,broken clouds,-5.5502,150.1429,Kimbe Bay Hotel
292,Kirakira,SB,84.92,overcast clouds,-10.4544,161.9205,SanBiz Lodge
294,Quelimane,MZ,72.57,broken clouds,-17.8786,36.8883,Hotel Flamingo
295,Shenjiamen,CN,53.44,overcast clouds,29.9576,122.29799999999999,Jinjiang Inn Zhoushan Putuo Shenjiamen
299,Djibo,BF,86.05,few clouds,14.1022,-1.6306,Centre Des Ressources DPENA
300,Port Lincoln,AU,67.08,few clouds,-34.7333,135.8667,Port Lincoln Hotel
303,Champerico,GT,86.0,scattered clouds,14.3,-91.9167,"Hotel y restaurante ""El Diamante"""
305,Bethel,US,64.4,overcast clouds,41.3712,-73.414,Courtyard by Marriott Danbury
306,Kampot,KH,82.4,clear sky,10.6167,104.1833,Two Moons Hotel
307,Dogondoutchi,NE,81.64,overcast clouds,13.6393,4.0287,Hôtel Alheri Maison Alheri
308,Camocim,BR,76.53,overcast clouds,-2.9022,-40.8411,Hotel Ilha do Amor
310,Wanning,CN,81.68,overcast clouds,18.8003,110.3967,Paradise Hotel
315,Adelaide,AU,66.99,scattered clouds,-34.9333,138.6,The Chancellor on Currie
316,Boca Do Acre,BR,72.41,overcast clouds,-8.7522,-67.3978,Hotel Sao Pedro
317,Verrettes,HT,80.6,clear sky,19.05,-72.4667,"La Verrettienne,Hôtel/Restaurant/Club"
318,Safaga,EG,66.2,clear sky,26.7292,33.9365,Lamar Resort Abu Soma
319,Kavieng,PG,84.43,overcast clouds,-2.5744,150.7967,Nusa Island Retreat
320,Cabo San Lucas,MX,84.2,clear sky,22.8909,-109.9124,Hotel Tesoro Los Cabos
321,Mount Isa,AU,89.6,clear sky,-20.7333,139.5,ibis Styles Mt Isa Verona
322,Ambilobe,MG,70.77,overcast clouds,-13.2,49.05,Hôtel & Restaurant DIANA Ambilobe
323,Balaguer,ES,53.01,overcast clouds,41.7912,0.8109,Hotel Balaguer
325,Ahipara,NZ,66.24,broken clouds,-35.1667,173.1667,Ahipara Holiday Park
328,North Bend,US,57.0,clear sky,43.4065,-124.2243,Red Lion Hotel Coos Bay
329,Salalah,OM,77.0,few clouds,17.0151,54.0924,HAMDAN PLAZA HOTEL SALALAH
331,Richards Bay,ZA,72.27,scattered clouds,-28.783,32.0377,BON Hotel Waterfront Richards Bay
332,Port Hardy,CA,53.6,few clouds,50.6996,-127.4199,Airport Inn
333,Waiuku,NZ,68.0,light rain,-37.25,174.75,Waiuku Lodge Motel
338,Samarai,PG,78.98,overcast clouds,-10.6167,150.6667,Nuli Sapi
339,Kiunga,PG,88.97,broken clouds,-6.1219,141.2906,Airport Lodge Kiunga
340,Mercedes,AR,62.01,clear sky,-34.6515,-59.4307,Posada del Inti Centro
341,Manokwari,ID,83.71,overcast clouds,-0.8667,134.0833,Swiss Belhotel Manokwari
342,Bubaque,GW,77.43,broken clouds,11.2833,-15.8333,"Casa Dora, Bubaque"
343,Huangchuan,CN,56.7,overcast clouds,32.1272,115.0394,Guangzhou International Hotel
344,Touros,BR,78.8,clear sky,-5.1989,-35.4608,INN NEW HORIZON
345,Wana,PK,63.21,light rain,32.2989,69.5725,Rest House at Wana Camp
346,Broken Hill,AU,62.6,overcast clouds,-31.95,141.4333,Royal Exchange Hotel
347,Ribeira Grande,PT,61.68,scattered clouds,38.5167,-28.7,Quinta da Meia Eira
348,Muros,ES,53.01,few clouds,42.7762,-9.0603,Apartment Av. Castelao
349,Aswan,EG,71.92,clear sky,24.0934,32.907,Nuba Nile
350,Rabo De Peixe,PT,57.2,few clouds,37.8,-25.5833,Quinta das Giestas
351,Noumea,NC,79.0,overcast clouds,-22.2763,166.4572,Hôtel Le Lagon
352,Marrakesh,MA,62.6,broken clouds,31.6315,-8.0083,Novotel Marrakech Hivernage
353,Shenzhen,CN,75.99,overcast clouds,22.5455,114.0683,Shenzhen Shanghai Hotel
359,Terme,TR,55.99,broken clouds,41.2092,36.9739,OTEL GÜVEN TERME
361,Robertsport,LR,80.73,overcast clouds,6.7533,-11.3686,Kwepunha Retreat
362,Guerrero Negro,MX,58.68,broken clouds,27.9769,-114.0611,"Casa Laguna, Bed & Breakfast"
363,Plettenberg Bay,ZA,61.99,clear sky,-34.0527,23.3716,Thanda Vista B&B
364,Dom Pedrito,BR,64.76,light rain,-30.9828,-54.6731,Hotel Alexandre
365,Cabinda,AO,79.61,overcast clouds,-5.55,12.2,"Hotel Executivo , 3 estrelas"
367,High Level,CA,53.6,clear sky,58.5169,-117.13600000000001,Days Inn by Wyndham High Level
368,Florianopolis,BR,75.0,clear sky,-27.6146,-48.5012,Hotel Boutique Quinta das Videiras
370,Sabratah,LY,61.11,overcast clouds,32.7933,12.4885,تقاطع اثار صبراتة
371,Panzhihua,CN,64.99,clear sky,26.5851,101.7128,Electric Power Hotel
373,Faanui,PF,82.0,overcast clouds,-16.4833,-151.75,Bora-Bora Pearl Beach Resort & Spa
375,Aguimes,ES,68.0,scattered clouds,27.9054,-15.4461,Hotel Villa de Aguimes
376,Benjamin Constant,BR,78.8,heavy intensity rain,-4.3831,-70.0311,CASA AVALIADA
378,Durban,ZA,73.0,broken clouds,-29.8579,31.0292,Hilton Durban
380,Nagua,DO,70.54,clear sky,19.3832,-69.8474,Hotel Cambri
381,Srivardhan,IN,81.68,clear sky,18.0333,73.0167,Savli Resort/Hotel - Shrivardhan
382,Yenagoa,NG,77.0,overcast clouds,4.9247,6.2642,Aridolf Resort Wellness and Spa
383,Fuerte Olimpo,PY,82.89,overcast clouds,-21.0415,-57.8738,Hospedaje DAMI
385,Pingzhuang,CN,63.43,few clouds,42.0372,119.2889,Haoke Guest House
386,Susanville,US,57.2,clear sky,40.4163,-120.65299999999999,Red Lion Inn & Suites Susanville
388,Saint-Georges,GD,80.6,few clouds,12.0564,-61.7485,Radisson Grenada Beach Resort
389,Esna,EG,68.0,clear sky,25.2934,32.554,Orient Star Dahabyia Isna 05 Nights Each Sunday
390,Sorong,ID,85.84,broken clouds,-0.8833,131.25,waigo splash hotel
391,Ponta Do Sol,PT,62.6,few clouds,32.6667,-17.1,Hotel do Campo
394,Acarau,BR,78.21,overcast clouds,-2.8856,-40.12,castelo pizzaria
395,San Cristobal,VE,80.6,few clouds,7.7669,-72.225,Posada Villaven C.A.
396,Nova Olinda Do Norte,BR,74.91,overcast clouds,-3.8881,-59.0942,Casa Juazeiro
398,San Patricio,US,82.4,scattered clouds,28.017,-97.5169,"Motel 6 Sinton, TX"
399,Sambava,MG,73.67,broken clouds,-14.2667,50.1667,Melrose
400,San-Pedro,CI,80.1,overcast clouds,4.7485,-6.6363,Hotel Maria
403,Saint George,US,70.0,clear sky,37.1041,-113.5841,Best Western Plus Abbey Inn
406,Bossangoa,CF,79.18,overcast clouds,6.4926,17.4552,LA PERLE DE BOSTON
407,Vao,NC,74.84,broken clouds,-22.6667,167.4833,Hotel Kou-Bugny
409,Maxixe,MZ,69.91,clear sky,-23.8597,35.3472,Oceano
412,Maroantsetra,MG,73.69,broken clouds,-15.4333,49.7333,Annexe Vatsy Hôtel
413,Cockburn Town,TC,74.12,clear sky,21.4612,-71.1419,Osprey Beach Hotel
414,Santa Ana,US,60.8,broken clouds,33.7456,-117.8678,Santa Ana Travel Inn
415,Pocoes,BR,62.74,overcast clouds,-14.5297,-40.3653,Poções Palace Hotel
416,Hualmay,PE,67.1,overcast clouds,-11.0964,-77.6139,Hotel Villa Kitzia Huacho
417,Kununurra,AU,86.0,few clouds,-15.7667,128.7333,Hotel Kununurra
418,Finschhafen,PG,85.05,scattered clouds,-6.6024,147.8681,Cossam Guest House
419,Wellington,NZ,63.0,broken clouds,-41.2866,174.7756,CityLife Wellington
420,Sao Jose Da Coroa Grande,BR,76.57,moderate rain,-8.8978,-35.1478,Crôa Mares Hotel
421,Fort Abbas,PK,78.8,broken clouds,29.1925,72.8536,AsAd's House
422,Caarapo,BR,68.45,overcast clouds,-22.6342,-54.8222,Hotel Pousada Quinta do Sul
426,Impfondo,CG,70.99,overcast clouds,1.6381,18.0667,Préfecture de la Likouala
428,Sierra Vista,US,71.6,broken clouds,31.5545,-110.3037,Gateway Studio Suites
429,Vila Franca Do Campo,PT,57.2,few clouds,37.7167,-25.4333,Pestana Bahia Praia
430,Kuching,MY,80.6,few clouds,1.55,110.3333,The Ranee Boutique Suites
431,Salinopolis,BR,78.91,overcast clouds,-0.6136,-47.3561,Salinas Park Resort Maçarico AP101
432,Ucluelet,CA,59.0,few clouds,48.9329,-125.5528,Black Rock Oceanfront Resort
433,Mae Hong Son,TH,78.8,few clouds,19.3003,97.9685,Baiyoke Chalet Hotel
434,Kelowna,CA,66.2,clear sky,49.8831,-119.4857,Delta Hotels by Marriott Grand Okanagan Resort
436,Ginda,IN,64.63,clear sky,30.6945,78.4932,Bal uma sankar hotel and restaurant
437,Jumla,NP,58.14,clear sky,29.2747,82.1838,"अन्नी घर, जुम्ला - Anni Ghar"
438,Kindu,CD,67.64,overcast clouds,-2.95,25.95,Résidence Okanda
440,Los Llanos De Aridane,ES,66.2,few clouds,28.6585,-17.9182,Valle Aridane
441,Bend,US,53.6,clear sky,44.0582,-121.3153,Fairfield Inn & Suites by Marriott Bend Downtown
442,Poso,ID,87.01,broken clouds,-1.3959,120.7524,Hotel 77 Poso
443,Taltal,CL,64.0,few clouds,-25.4,-70.4833,Residencial Karime
445,Mmathubudukwane,BW,60.8,clear sky,-24.6,26.4333,Gill Sleepover Guesthouse
447,Victoria,HK,73.0,overcast clouds,22.2855,114.1577,Mini Hotel Central
448,Laguna,US,70.0,clear sky,38.421,-121.4238,Holiday Inn Express & Suites Elk Grove Central - Hwy 99
449,Antofagasta,CL,62.6,broken clouds,-23.65,-70.4,Holiday Inn Express Antofagasta
453,Athabasca,CA,59.0,few clouds,54.7169,-113.2854,Athabasca Lodge Motel
454,Palmer,US,57.2,broken clouds,42.1584,-72.3287,Wedgewood Motel
458,Hambantota,LK,75.2,few clouds,6.1241,81.1185,Bungalow 63
461,Isangel,VU,84.2,few clouds,-19.55,169.2667,Volcano Sea View Tree House
463,Lewistown,US,55.4,few clouds,40.5992,-77.5714,Quality Inn & Suites
465,Loncoche,CL,57.2,light rain,-39.3667,-72.6333,Cabañas JoanJuma
466,Nizhnekamsk,RU,51.8,clear sky,55.6366,51.8245,Hotel 116
469,Diamantino,BR,76.73,overcast clouds,-14.4086,-56.4461,Hotel Delta
470,Kalabo,ZM,63.41,overcast clouds,-14.97,22.6814,Sikakubete Guest House Kalabo Town Council
471,Quang Ngai,VN,84.78,few clouds,15.1167,108.8,Central Hotel
473,Victor Harbor,AU,66.99,few clouds,-35.5667,138.6167,McCracken Country Club
476,Nouadhibou,MR,66.2,broken clouds,20.930999999999997,-17.0347,El Medina
477,Puerto Ayacucho,VE,72.48,overcast clouds,5.6639,-67.6236,Posada Turistica Manapiare
478,Dhidhdhoo,MV,83.84,overcast clouds,6.8833,73.1,Dhidhoo beach
479,Capaci,IT,55.99,clear sky,38.1711,13.2393,Hotel Sirenetta
480,Zaranj,AF,68.23,overcast clouds,30.9667,61.8833,غزنوی هوتل
481,San Juan,AR,70.93,clear sky,-31.5375,-68.5364,Hotel Provincial
482,San Luis,AR,62.56,clear sky,-33.295,-66.3356,Huarpes Hotel
483,Roquetas De Mar,ES,57.2,few clouds,36.7642,-2.6148,Hotel Don Ángel
484,Chicama,PE,66.2,few clouds,-7.8447,-79.1469,Hospedaje Punta Cana PERU
485,Barabai,ID,85.44,overcast clouds,-2.5833,115.3833,HOTEL BOURAQ INDAH PERMAI
489,Mattru,SL,75.25,overcast clouds,7.6244,-11.8332,"Mondkor Town, Bagbo Chiefdom, Bo District"
493,Chachapoyas,PE,52.2,overcast clouds,-6.2317,-77.869,Teresita
494,Aden,YE,80.17,clear sky,12.7794,45.0367,Sama Emirate Hotel
495,Mildura,AU,64.99,overcast clouds,-34.2,142.15,Mercure Hotel Mildura
496,Sao Joao Da Barra,BR,69.85,few clouds,-21.6403,-41.0511,Pousada Porto De Canoas
497,Tevaitoa,PF,82.02,overcast clouds,-16.7833,-151.5,Hôtel Raiatea Lodge
498,Barmer,IN,70.9,scattered clouds,25.75,71.3833,OYO 71911 Hotel Amber Palace
500,Hami,CN,53.64,clear sky,42.8,93.45,Laoyutang Resort
501,Caravelas,BR,75.04,broken clouds,-17.7125,-39.2481,Pousada dos Navegantes
503,Camacha,PT,62.6,scattered clouds,33.0833,-16.3333,Hotel Porto Santo & Spa
504,Zhuhai,CN,79.0,scattered clouds,22.2769,113.5678,Nanyang Seascape Hotel Zhuhai Hotel
507,Tarauaca,BR,73.45,overcast clouds,-8.1614,-70.7656,Flat Temporada
511,Jalingo,NG,77.07,overcast clouds,8.8833,11.3667,Debright Motel
512,Sao Joao Del Rei,BR,56.23,clear sky,-21.1356,-44.2617,Solara Hotel
516,Kandrian,PG,82.76,overcast clouds,-6.2167,149.55,Kandrian Station
517,Jaciara,BR,72.34,broken clouds,-15.9653,-54.9683,Taba Hotel
519,Nizwa,OM,75.45,clear sky,22.9333,57.5333,Orient Apartments
520,Itinga,BR,68.05,broken clouds,-16.6131,-41.7653,Hotel Restaurante Itinga
521,Itarema,BR,78.58,overcast clouds,-2.9248,-39.9167,"Sea Lounge! Bar, Club & Restaurant"
522,Amahai,ID,84.74,overcast clouds,-3.3333,128.9167,HOTEL ISABELA
523,Kwinana,AU,69.01,clear sky,-32.25,115.7667,Rockingham Apartments
524,Cabedelo,BR,77.0,light rain,-6.9811,-34.8339,Hotel Pigalle
525,Bajil,YE,76.93,few clouds,15.0584,43.2851,فندق الجلال
526,Belmonte,BR,71.6,broken clouds,-15.8631,-38.8828,Pousada Monte Carmelo O Pão
527,Tatui,BR,58.8,clear sky,-23.3556,-47.8569,Hotel Del Fiol
528,Barra Dos Coqueiros,BR,80.6,scattered clouds,-10.9089,-37.0386,Jangadeiro
532,Ballina,AU,78.8,clear sky,-28.8667,153.5667,Ramada Hotel & Suites by Wyndham Ballina Byron
534,Domoni,KM,78.01,light rain,-12.2569,44.5319,Al Djadid
535,Presidencia Roque Saenz Pena,AR,75.0,overcast clouds,-26.7852,-60.4388,Hotel Gualok
536,Nanakuli,US,82.4,few clouds,21.3906,-158.1547,Camp Pālehua
540,Chardara,KZ,57.04,clear sky,41.2547,67.9692,Жанаргул
542,Lima,PE,66.2,few clouds,-12.0432,-77.0282,Gran Hotel Bolivar Lima
543,Weiser,US,60.8,few clouds,44.251000000000005,-116.9693,The Colonial Motel
547,Phan Thiet,VN,83.19,scattered clouds,10.9333,108.1,Hotel Saigon-PT
548,Lamu,KE,82.4,light rain,-2.2717,40.902,Lamu House
549,Reconquista,AR,70.05,overcast clouds,-29.15,-59.65,Grand Hotel
550,San Lorenzo,PY,75.2,clear sky,-25.3333,-57.5333,Hotel del Sur
551,Sinnamary,GF,78.39,overcast clouds,5.3833,-52.95,ALETHEIA Appartement Sinnamary
552,Hamilton,US,54.0,clear sky,39.1834,-84.5333,Six Acres Bed & Breakfast
554,Gold Coast,AU,79.0,clear sky,-28.0,153.4333,Mantra Towers of Chevron Surfers Paradise
555,Comodoro Rivadavia,AR,60.8,clear sky,-45.8667,-67.5,Austral Hotel
556,Lishu,CN,59.74,overcast clouds,43.3047,124.3278,Yuzhen Hotel
557,Cartagena Del Chaira,CO,71.2,overcast clouds,1.3349,-74.8429,HOTEL LA ROCA
560,Sumenep,ID,83.62,few clouds,-7.0167,113.8667,OYO 3271 Homestay Pandian
561,Dapaong,TG,85.53,broken clouds,10.8639,0.205,Hotel Caroli
562,Dwarka,IN,80.2,scattered clouds,22.2394,68.9678,Hotel Narayan Avezika Comfort
563,Salina,US,53.6,clear sky,38.8403,-97.6114,Holiday Inn Express & Suites Salina
564,Namibe,AO,79.99,scattered clouds,-15.1961,12.1522,Hotel Chik Chik Namibe
566,Sandpoint,US,60.8,clear sky,48.2766,-116.5533,La Quinta Inn by Wyndham Sandpoint
568,Sur,OM,83.3,clear sky,22.5667,59.5289,Sur Plaza Hotel
569,Meadow Lake,US,73.99,broken clouds,34.8014,-106.5436,JKL Inc. R.V Park and Storage
570,Ogaminana,NG,74.62,light rain,7.5946,6.2248,Mashida Guest House
571,Faya,SA,64.4,clear sky,18.3851,42.4509,مقبرة ال مجمل
572,San Quintin,MX,57.24,broken clouds,30.4833,-115.95,Don Eddie's Sport Fishing Center
573,Bathsheba,BB,78.8,scattered clouds,13.2167,-59.5167,Atlantis Hotel
574,Komsomolskiy,UZ,53.6,overcast clouds,40.4272,71.7189,Ikathouse
576,San Ramon,US,64.4,clear sky,37.7799,-121.978,San Ramon Marriott
577,Male,MV,82.4,scattered clouds,4.1748,73.5089,Hotel Octave Maldives
580,Gorontalo,ID,86.11,broken clouds,0.5412,123.0595,Maqna Hotel by Prasanthi
581,Totness,SR,77.79,overcast clouds,5.8833,-56.3167,STAATS LOGEERGEBOUW TOTNESS
582,Necochea,AR,61.0,clear sky,-38.5473,-58.7368,dyd -mar Hotel
583,Zamora,EC,67.01,light rain,-4.0692,-78.9567,Cabañas Ecológicas Copalinga
585,Pacific Grove,US,59.0,few clouds,36.6177,-121.9166,Lovers Point Inn
586,Tautira,PF,84.0,broken clouds,-17.7333,-149.15,Pension Oaoa
588,Anju,KP,56.21,scattered clouds,39.6178,125.6647,Super Secret Russian Base
590,Guiglo,CI,73.04,overcast clouds,6.5456,-7.4966,Hotel GBAOLY 2
591,Altamont,US,55.4,clear sky,42.2068,-121.7372,Microtel Inn & Suites by Wyndham Klamath Falls
592,Alice Springs,AU,75.99,clear sky,-23.7,133.8833,Desert Palms Alice Springs
595,Guilin,CN,62.6,mist,25.2819,110.2864,Grand 0773 Hotel
599,Aki,JP,60.8,clear sky,33.5,133.9,Seigetsu Ryokan
600,Ahuimanu,US,82.4,few clouds,21.4447,-157.8378,Paradise Bay Resort
601,Cabaiguan,CU,73.4,moderate rain,22.0789,-79.4992,Hostal Dumar y Ania
603,Tuatapere,NZ,61.0,overcast clouds,-46.1333,167.6833,Ron and Tony's Bed & Breakfast
604,Awbari,LY,69.19,overcast clouds,26.5921,12.7805,فندق أوباري
605,Mangrol,IN,78.73,clear sky,21.1167,70.1167,Hotel The Royal Honours
606,Aktau,KZ,50.0,fog,43.65,51.2,Silk Way Hotel
607,Knysna,ZA,59.0,mist,-34.0363,23.0471,Protea Hotel by Marriott Knysna Quays
608,Karratha,AU,84.04,few clouds,-20.7377,116.8463,ibis Styles Karratha
610,Santa Cruz,BO,73.9,scattered clouds,-17.8,-63.1667,Aviador Hotel Boutique
611,Lata,PT,61.0,overcast clouds,40.1629,-8.3327,Casa Maquia
614,Hervey Bay,AU,78.8,clear sky,-25.2986,152.8535,Shelly Bay Resort
615,Gat,IL,55.99,clear sky,31.61,34.7642,OlusHome
617,Buckeye,US,82.0,overcast clouds,33.3703,-112.5838,Buckeye Motor Hotel
618,Dakar,SN,69.8,scattered clouds,14.6937,-17.4441,Redface Studios Meublés
620,Yulara,AU,62.6,broken clouds,-25.2406,130.9889,Desert Gardens Hotel - Ayers Rock Resort
623,Boa Vista,BR,80.6,light rain,2.8197,-60.6733,Aipana Plaza Hotel
624,Wenling,CN,55.99,overcast clouds,28.3669,121.36,Hanting Express Wenling Wanchang North Road
625,Weligama,LK,79.97,broken clouds,5.9667,80.4167,Weligama Bay Resort
626,Maceio,BR,73.4,mist,-9.6658,-35.7353,Poutur Pousada
627,Ruston,US,57.2,mist,32.5232,-92.6379,"Country Inn & Suites by Radisson, Ruston, LA"
628,Manali,IN,73.4,heavy intensity rain,13.1667,80.2667,Sarathy Lodge
629,Timbiras,BR,72.68,overcast clouds,-4.2553,-43.9406,Casa jaboatao Guimarães
630,Talavera De La Reina,ES,53.44,overcast clouds,39.9635,-4.8308,Be Live City Center Talavera
631,Antalaha,MG,73.27,broken clouds,-14.9003,50.2788,Hotel Vitasoa
632,Santa Rosa,PH,87.8,broken clouds,14.3122,121.1114,Erlyn’s Sta Rosa City Home
635,Madang,PG,82.45,overcast clouds,-5.2246,145.7966,Comfort Inn Hotel
638,Chai Badan,TH,89.01,overcast clouds,15.2,101.1333,Narai Grand Hotel
639,Bartica,GY,77.0,few clouds,6.4,-58.6167,Relax Inn Hotel
640,Portobelo,PA,82.0,overcast clouds,9.55,-79.65,Scuba Portobelo
643,Mahajanga,MG,73.4,few clouds,-15.7167,46.3167,Restaurant Greedy Coco Lodge Majunga
644,Tamiahua,MX,77.25,overcast clouds,21.2667,-97.45,Mission Of The Sun Hotel
645,Manta,EC,78.8,broken clouds,-0.95,-80.7333,Balandra Hotel
648,Mayumba,GA,78.73,overcast clouds,-3.432,10.6554,LIKWALE LODGE
649,Manaus,BR,80.6,clear sky,-3.1019,-60.025,Manaus Hotéis Millennium
652,Kualakapuas,ID,80.6,few clouds,-3.0091,114.3876,Guest House Izonk
653,Guider,CM,84.94,overcast clouds,9.9342,13.9486,Hotel Falaise
654,Tibati,CM,69.57,overcast clouds,6.4667,12.6333,Tibati Hotel
